{"type":"FeatureCollection","features":[{"type":"Feature","geometry":{"type":"Point","coordinates":[106.69333251172,10.801250611408]},"properties":{"marker-symbol":"bar","name":"Sinh T\u1ed1 33 V\u1ea1n Ki\u1ebfp","address":"33 V\u1ea1n Ki\u1ebfp"}},{"type":"Feature","geometry":{"type":"Point","coordinates":[106.65917229714,10.757520911414]},"properties":{"marker-symbol":"bar","name":"Ch\u1ee3 R\u1eaby Hospital","address":"201B Nguyen Chi Thanh St., Dist. 5 "}},{"type":"Feature","geometry":{"type":"Point","coordinates":[106.67718736024,10.804045882213]},"properties":{"marker-symbol":"bar","name":"Go1VN","address":"85 H\u1ed3 V\u0103n Hu\u00ea "}},{"type":"Feature","geometry":{"type":"Point","coordinates":[106.691563,10.791975259781]},"properties":{"marker-symbol":"bar","name":"B\u00e1nh Canh Ho\u00e0ng Ty","address":"Tr\u1ea7n Quang Kh\u1ea3i "}},{"type":"Feature","geometry":{"type":"Point","coordinates":[106.881,10.3803]},"properties":{"marker-symbol":"bar","name":"Ch\u1ee3 \u0110\u1ed3ng Ho\u00e0","address":"Ch\u1ee3 \u0110\u1ed3ng Ho\u00e0, C\u1ea7n Gi\u1edd "}},{"type":"Feature","geometry":{"type":"Point","coordinates":[106.694961,10.806363]},"properties":{"marker-symbol":"bar","name":"Honda Head - Ph\u00e1t Ti\u1ebfn","address":"46-48 N\u01a1 Trang Long "}},{"type":"Feature","geometry":{"type":"Point","coordinates":[106.69795632416,10.786398629451]},"properties":{"marker-symbol":"bar","name":"Euro Centre","address":" "}},{"type":"Feature","geometry":{"type":"Point","coordinates":[106.67718736024,10.804045882213]},"properties":{"marker-symbol":"bar","name":"Go1VN","address":"85 H\u1ed3 V\u0103n Hu\u00ea "}},{"type":"Feature","geometry":{"type":"Point","coordinates":[106.67718736024,10.804045882213]},"properties":{"marker-symbol":"bar","name":"Go1VN","address":"85 H\u1ed3 V\u0103n Hu\u00ea "}},{"type":"Feature","geometry":{"type":"Point","coordinates":[106.67718736024,10.804045882213]},"properties":{"marker-symbol":"bar","name":"Go1VN","address":"85 H\u1ed3 V\u0103n Hu\u00ea "}},{"type":"Feature","geometry":{"type":"Point","coordinates":[106.67718736024,10.804045882213]},"properties":{"marker-symbol":"bar","name":"Go1VN","address":"85 H\u1ed3 V\u0103n Hu\u00ea "}},{"type":"Feature","geometry":{"type":"Point","coordinates":[106.71107972839,10.800844800703]},"properties":{"marker-symbol":"bar","name":"Honda Head Phat Tien","address":"245 X\u00f4 Vi\u1ebft Ngh\u1ec7 T\u0129nh "}},{"type":"Feature","geometry":{"type":"Point","coordinates":[106.71107972839,10.800844800703]},"properties":{"marker-symbol":"bar","name":"Honda Head Phat Tien","address":"245 X\u00f4 Vi\u1ebft Ngh\u1ec7 T\u0129nh "}},{"type":"Feature","geometry":{"type":"Point","coordinates":[106.70769371159,10.762230867745]},"properties":{"marker-symbol":"bar","name":"Copac Square Building","address":"12 Ton Dan St., Dist. 4 "}},{"type":"Feature","geometry":{"type":"Point","coordinates":[106.71107972839,10.796898228989]},"properties":{"marker-symbol":"bar","name":"C\u00e2y X\u0103ng Th\u1ecb Ngh\u00e8","address":"160 X\u00f4 Vi\u1ebft Ngh\u1ec7 T\u0129nh, ph\u01b0\u1eddng 26, Ho Chi Minh City, Prey Nokor "}},{"type":"Feature","geometry":{"type":"Point","coordinates":[108.32752990723,15.879778862]},"properties":{"marker-symbol":"bar","name":"Highlands Coffee","address":"83 Tr\u1ea7n H\u01b0ng \u0110\u1ea1o "}},{"type":"Feature","geometry":{"type":"Point","coordinates":[108.818543,15.350899]},"properties":{"marker-symbol":"bar","name":"Nha\u0300 cu\u0309a Sang Ga\u0300","address":" "}},{"type":"Feature","geometry":{"type":"Point","coordinates":[106.67003067127,10.770967988733]},"properties":{"marker-symbol":"bar","name":"Karaoke 64","address":" "}},{"type":"Feature","geometry":{"type":"Point","coordinates":[106.69184692389,10.783850337392]},"properties":{"marker-symbol":"bar","name":"S\u1edf T\u01b0 Ph\u00e1p TP. HCM","address":"141 - 143 Pastuer, Q3 "}},{"type":"Feature","geometry":{"type":"Point","coordinates":[107.044929,20.952722]},"properties":{"marker-symbol":"bar","name":"Trung Nguy\u00ean","address":"\u0111\u01b0\u1eddng c\u00e1i d\u0103m "}},{"type":"Feature","geometry":{"type":"Point","coordinates":[106.71100486691,10.814449130127]},"properties":{"marker-symbol":"bar","name":"Mi\u1ec1n \u0110\u00f4ng Bus Station","address":"292 Dinh Bo Linh St., Ward 26, Binh Thanh Dist. "}},{"type":"Feature","geometry":{"type":"Point","coordinates":[106.68452277742,10.80003043929]},"properties":{"marker-symbol":"bar","name":"Bv Hoan My Sai Gon","address":"Phan Xich Long, Q. Phu Nhuan "}},{"type":"Feature","geometry":{"type":"Point","coordinates":[106.7585642853,10.847573518859]},"properties":{"marker-symbol":"bar","name":"S\u00e2n Banh - T\u1eadp L\u00e1i Xe","address":" "}},{"type":"Feature","geometry":{"type":"Point","coordinates":[106.68690079503,10.797365514794]},"properties":{"marker-symbol":"bar","name":"Moc Hi-end Cafe","address":"29-31 Hoa Mai Q.PN Hoa Phuong"}},{"type":"Feature","geometry":{"type":"Point","coordinates":[106.69203,10.790568]},"properties":{"marker-symbol":"bar","name":"B\u00fan B\u00f2 Hu\u1ebf M\u1ea1 \u01a0i","address":" "}},{"type":"Feature","geometry":{"type":"Point","coordinates":[108.43628933203,11.942050840074]},"properties":{"marker-symbol":"bar","name":"Gia Nguyen Cafe","address":"Nguy\u1ec5n Ch\u00ed Thanh Ph\u01b0\u1eddng 1"}},{"type":"Feature","geometry":{"type":"Point","coordinates":[106.69582843781,10.782552470423]},"properties":{"marker-symbol":"bar","name":"Turtle Lake (H\u1ed3 Con R\u00f9a)","address":"Ph\u1ea1m Ng\u1ecdc Th\u1ea1ch, District 3 V\u00f5 V\u0103n T\u1ea7n"}},{"type":"Feature","geometry":{"type":"Point","coordinates":[106.69582843781,10.782552470423]},"properties":{"marker-symbol":"bar","name":"Turtle Lake (H\u1ed3 Con R\u00f9a)","address":"Ph\u1ea1m Ng\u1ecdc Th\u1ea1ch, District 3 V\u00f5 V\u0103n T\u1ea7n"}},{"type":"Feature","geometry":{"type":"Point","coordinates":[106.70787222478,10.733982542752]},"properties":{"marker-symbol":"bar","name":"Skynet Office","address":"10 H\u01b0ng Th\u00e1i "}},{"type":"Feature","geometry":{"type":"Point","coordinates":[106.689863,10.780915]},"properties":{"marker-symbol":"bar","name":"Soi da cafe","address":"6B Ngo Thoi Nhiem, District 3, Ho Chi Minh city "}},{"type":"Feature","geometry":{"type":"Point","coordinates":[106.70731365681,10.756621768992]},"properties":{"marker-symbol":"bar","name":"Ph\u00e1 l\u1ea5u qu\u1eadn 4","address":"H\u1ebbm 243 , ngay ng\u00e3 3 ra nh\u00e0 th\u1edd "}},{"type":"Feature","geometry":{"type":"Point","coordinates":[106.70549398026,10.767695983878]},"properties":{"marker-symbol":"bar","name":"Dai Hoc Luat","address":"2 Nguyen Tat Thanh "}},{"type":"Feature","geometry":{"type":"Point","coordinates":[106.69582843781,10.782552470423]},"properties":{"marker-symbol":"bar","name":"Turtle Lake (H\u1ed3 Con R\u00f9a)","address":"Ph\u1ea1m Ng\u1ecdc Th\u1ea1ch, District 3 V\u00f5 V\u0103n T\u1ea7n"}},{"type":"Feature","geometry":{"type":"Point","coordinates":[106.708419,10.731976]},"properties":{"marker-symbol":"bar","name":"Mien Ga - Mac Dinh Chi","address":"Bui Bang Doan "}},{"type":"Feature","geometry":{"type":"Point","coordinates":[106.70787222478,10.733982542752]},"properties":{"marker-symbol":"bar","name":"Skynet Office","address":"10 H\u01b0ng Th\u00e1i "}},{"type":"Feature","geometry":{"type":"Point","coordinates":[106.73564718087,10.803911492032]},"properties":{"marker-symbol":"bar","name":"H\u1ed9i v\u1ecbt l\u1ed9n Kim Th\u1ea3o","address":"104 Xu\u00e2n Thu\u1ef7 "}},{"type":"Feature","geometry":{"type":"Point","coordinates":[106.686344,10.79830154]},"properties":{"marker-symbol":"bar","name":"Square Headquarters","address":"54-56 Hoa Dao, Phu Nhuan "}},{"type":"Feature","geometry":{"type":"Point","coordinates":[106.6846609666,10.787226187974]},"properties":{"marker-symbol":"bar","name":"B\u00fan Ch\u1ea3 \u00c1nh H\u1ed3ng","address":"140B Ly Chinh Thang St., Ward 7, Dist. 3 "}},{"type":"Feature","geometry":{"type":"Point","coordinates":[106.686344,10.79830154]},"properties":{"marker-symbol":"bar","name":"Square Headquarters","address":"54-56 Hoa Dao, Phu Nhuan "}},{"type":"Feature","geometry":{"type":"Point","coordinates":[106.676753,10.789374]},"properties":{"marker-symbol":"bar","name":"Hoang Cafe","address":"H\u1ebbm 400 L\u00ea V\u0103n S\u1ef9, P6, Q3 "}},{"type":"Feature","geometry":{"type":"Point","coordinates":[106.686344,10.79830154]},"properties":{"marker-symbol":"bar","name":"Square Headquarters","address":"54-56 Hoa Dao, Phu Nhuan "}},{"type":"Feature","geometry":{"type":"Point","coordinates":[106.686344,10.79830154]},"properties":{"marker-symbol":"bar","name":"Square Headquarters","address":"54-56 Hoa Dao, Phu Nhuan "}},{"type":"Feature","geometry":{"type":"Point","coordinates":[106.686344,10.79830154]},"properties":{"marker-symbol":"bar","name":"Square Headquarters","address":"54-56 Hoa Dao, Phu Nhuan "}},{"type":"Feature","geometry":{"type":"Point","coordinates":[106.686344,10.79830154]},"properties":{"marker-symbol":"bar","name":"Square Headquarters","address":"54-56 Hoa Dao, Phu Nhuan "}},{"type":"Feature","geometry":{"type":"Point","coordinates":[106.686344,10.79830154]},"properties":{"marker-symbol":"bar","name":"Square Headquarters","address":"54-56 Hoa Dao, Phu Nhuan "}},{"type":"Feature","geometry":{"type":"Point","coordinates":[106.74251803232,10.787539068329]},"properties":{"marker-symbol":"bar","name":"binh khanh apartment","address":" "}},{"type":"Feature","geometry":{"type":"Point","coordinates":[106.68790267941,10.790742224548]},"properties":{"marker-symbol":"bar","name":"Skynet Technology Incubator","address":" "}},{"type":"Feature","geometry":{"type":"Point","coordinates":[106.68865121671,10.798304498557]},"properties":{"marker-symbol":"bar","name":"Tra Sua Tea Cup","address":"174 Phan Xich Long F2 Q PN Hoa Su"}},{"type":"Feature","geometry":{"type":"Point","coordinates":[106.686344,10.79830154]},"properties":{"marker-symbol":"bar","name":"Square Headquarters","address":"54-56 Hoa Dao, Phu Nhuan "}},{"type":"Feature","geometry":{"type":"Point","coordinates":[108.818543,15.350899]},"properties":{"marker-symbol":"bar","name":"Nha\u0300 cu\u0309a Sang Ga\u0300","address":" "}},{"type":"Feature","geometry":{"type":"Point","coordinates":[108.34280126293,12.947900357889]},"properties":{"marker-symbol":"bar","name":"C\u1ecf Ba L\u00e1","address":" "}},{"type":"Feature","geometry":{"type":"Point","coordinates":[106.686344,10.79830154]},"properties":{"marker-symbol":"bar","name":"Square Headquarters","address":"54-56 Hoa Dao, Phu Nhuan "}},{"type":"Feature","geometry":{"type":"Point","coordinates":[106.686344,10.79830154]},"properties":{"marker-symbol":"bar","name":"Square Headquarters","address":"54-56 Hoa Dao, Phu Nhuan "}},{"type":"Feature","geometry":{"type":"Point","coordinates":[106.65255160255,10.800518225141]},"properties":{"marker-symbol":"bar","name":"LA Cafe","address":" "}},{"type":"Feature","geometry":{"type":"Point","coordinates":[106.686344,10.79830154]},"properties":{"marker-symbol":"bar","name":"Square Headquarters","address":"54-56 Hoa Dao, Phu Nhuan "}},{"type":"Feature","geometry":{"type":"Point","coordinates":[106.70549398026,10.767695983878]},"properties":{"marker-symbol":"bar","name":"Dai Hoc Luat","address":"2 Nguyen Tat Thanh "}},{"type":"Feature","geometry":{"type":"Point","coordinates":[106.686344,10.79830154]},"properties":{"marker-symbol":"bar","name":"Square Headquarters","address":"54-56 Hoa Dao, Phu Nhuan "}},{"type":"Feature","geometry":{"type":"Point","coordinates":[106.68865121671,10.798304498557]},"properties":{"marker-symbol":"bar","name":"Tra Sua Tea Cup","address":"174 Phan Xich Long F2 Q PN Hoa Su"}},{"type":"Feature","geometry":{"type":"Point","coordinates":[106.686344,10.79830154]},"properties":{"marker-symbol":"bar","name":"Square Headquarters","address":"54-56 Hoa Dao, Phu Nhuan "}},{"type":"Feature","geometry":{"type":"Point","coordinates":[106.686344,10.79830154]},"properties":{"marker-symbol":"bar","name":"Square Headquarters","address":"54-56 Hoa Dao, Phu Nhuan "}},{"type":"Feature","geometry":{"type":"Point","coordinates":[106.686344,10.79830154]},"properties":{"marker-symbol":"bar","name":"Square Headquarters","address":"54-56 Hoa Dao, Phu Nhuan "}},{"type":"Feature","geometry":{"type":"Point","coordinates":[106.67398452759,10.772102463404]},"properties":{"marker-symbol":"bar","name":"Cinebox H\u00f2a B\u00ecnh","address":"240-242 3\/2 St. at L\u00ea H\u1ed3ng Phong St."}},{"type":"Feature","geometry":{"type":"Point","coordinates":[106.7008412178,10.787321633945]},"properties":{"marker-symbol":"bar","name":"Kem Kh\u00e1nh Nh\u01b0","address":"2A \u0110inh Ti\u00ean Ho\u00e0ng "}},{"type":"Feature","geometry":{"type":"Point","coordinates":[106.67820071565,10.79417795812]},"properties":{"marker-symbol":"bar","name":"Banh Xeo An La Ghien","address":" "}},{"type":"Feature","geometry":{"type":"Point","coordinates":[106.6917,10.7985]},"properties":{"marker-symbol":"bar","name":"Coffe Hope","address":" "}},{"type":"Feature","geometry":{"type":"Point","coordinates":[107.81037240492,11.543902060687]},"properties":{"marker-symbol":"bar","name":"Com nieu Thuan Thanh","address":"86 Ly Tu Trong P2 Bao Loc "}},{"type":"Feature","geometry":{"type":"Point","coordinates":[108.44567258534,11.936578960264]},"properties":{"marker-symbol":"bar","name":"Bun Bo Thien Trang Da Lat","address":"2b Ho Tung Mau "}},{"type":"Feature","geometry":{"type":"Point","coordinates":[108.44983398634,11.948086574151]},"properties":{"marker-symbol":"bar","name":"Bich Cau Coffee","address":"Ho Xuan Huong  Lake Nguyen Thai Hoc"}},{"type":"Feature","geometry":{"type":"Point","coordinates":[108.4323,11.9497]},"properties":{"marker-symbol":"bar","name":"Qu\u00e1n 49","address":" "}},{"type":"Feature","geometry":{"type":"Point","coordinates":[108.44567258534,11.936578960264]},"properties":{"marker-symbol":"bar","name":"Bun Bo Thien Trang Da Lat","address":"2b Ho Tung Mau "}},{"type":"Feature","geometry":{"type":"Point","coordinates":[106.686344,10.79830154]},"properties":{"marker-symbol":"bar","name":"Square Headquarters","address":"54-56 Hoa Dao, Phu Nhuan "}},{"type":"Feature","geometry":{"type":"Point","coordinates":[106.686344,10.79830154]},"properties":{"marker-symbol":"bar","name":"Square Headquarters","address":"54-56 Hoa Dao, Phu Nhuan "}},{"type":"Feature","geometry":{"type":"Point","coordinates":[106.686344,10.79830154]},"properties":{"marker-symbol":"bar","name":"Square Headquarters","address":"54-56 Hoa Dao, Phu Nhuan "}},{"type":"Feature","geometry":{"type":"Point","coordinates":[106.7680796952,10.67368652971]},"properties":{"marker-symbol":"bar","name":"B\u00ecnh Kh\u00e1nh Ferry","address":"Hu\u1ef3nh T\u1ea5n Ph\u00e1t street "}},{"type":"Feature","geometry":{"type":"Point","coordinates":[106.89576449186,10.404480926325]},"properties":{"marker-symbol":"bar","name":"\u0110\u1ea3o Kh\u1ec9, C\u1ea7n Gi\u1edd","address":" C\u1ea7n Gi\u1edd"}},{"type":"Feature","geometry":{"type":"Point","coordinates":[106.7680796952,10.67368652971]},"properties":{"marker-symbol":"bar","name":"B\u00ecnh Kh\u00e1nh Ferry","address":"Hu\u1ef3nh T\u1ea5n Ph\u00e1t street "}},{"type":"Feature","geometry":{"type":"Point","coordinates":[106.686344,10.79830154]},"properties":{"marker-symbol":"bar","name":"Square Headquarters","address":"54-56 Hoa Dao, Phu Nhuan "}},{"type":"Feature","geometry":{"type":"Point","coordinates":[106.71871573261,10.729125104557]},"properties":{"marker-symbol":"bar","name":"Crescent Mall","address":" "}},{"type":"Feature","geometry":{"type":"Point","coordinates":[106.686344,10.79830154]},"properties":{"marker-symbol":"bar","name":"Square Headquarters","address":"54-56 Hoa Dao, Phu Nhuan "}},{"type":"Feature","geometry":{"type":"Point","coordinates":[106.686344,10.79830154]},"properties":{"marker-symbol":"bar","name":"Square Headquarters","address":"54-56 Hoa Dao, Phu Nhuan "}},{"type":"Feature","geometry":{"type":"Point","coordinates":[106.7382,10.7869]},"properties":{"marker-symbol":"bar","name":"Ch\u1ee3 B\u00ecnh Kh\u00e1nh","address":" "}},{"type":"Feature","geometry":{"type":"Point","coordinates":[106.66310450917,10.778755682234]},"properties":{"marker-symbol":"bar","name":"Cafe HD SaiGon","address":"68a \u0110\u1ed3ng Nai "}},{"type":"Feature","geometry":{"type":"Point","coordinates":[106.686344,10.79830154]},"properties":{"marker-symbol":"bar","name":"Square Headquarters","address":"54-56 Hoa Dao, Phu Nhuan "}},{"type":"Feature","geometry":{"type":"Point","coordinates":[106.686344,10.79830154]},"properties":{"marker-symbol":"bar","name":"Square Headquarters","address":"54-56 Hoa Dao, Phu Nhuan "}},{"type":"Feature","geometry":{"type":"Point","coordinates":[106.69855356216,10.779559262929]},"properties":{"marker-symbol":"bar","name":"Cafe B\u1ec7t","address":"April 30th Park, L\u00ea Du\u1ea9n Blvd., Dist. 1 H\u00e0n Thuy\u00ean & Alexandre de Rrodes"}},{"type":"Feature","geometry":{"type":"Point","coordinates":[106.686344,10.79830154]},"properties":{"marker-symbol":"bar","name":"Square Headquarters","address":"54-56 Hoa Dao, Phu Nhuan "}},{"type":"Feature","geometry":{"type":"Point","coordinates":[106.66348,10.778116]},"properties":{"marker-symbol":"bar","name":"Chim Cut Chien Bo - 54 Dong Nai","address":" "}},{"type":"Feature","geometry":{"type":"Point","coordinates":[106.71117762421,10.799502681655]},"properties":{"marker-symbol":"bar","name":"KFC XVNT","address":"X\u00f4 Vi\u1ebft Ngh\u1ec7 T\u0129nh "}},{"type":"Feature","geometry":{"type":"Point","coordinates":[106.78968671054,10.870479407813]},"properties":{"marker-symbol":"bar","name":"Nonglam University","address":" "}},{"type":"Feature","geometry":{"type":"Point","coordinates":[106.686344,10.79830154]},"properties":{"marker-symbol":"bar","name":"Square Headquarters","address":"54-56 Hoa Dao, Phu Nhuan "}},{"type":"Feature","geometry":{"type":"Point","coordinates":[106.7057732643,10.79428495992]},"properties":{"marker-symbol":"bar","name":"G\u00e0's Room","address":" "}},{"type":"Feature","geometry":{"type":"Point","coordinates":[106.686344,10.79830154]},"properties":{"marker-symbol":"bar","name":"Square Headquarters","address":"54-56 Hoa Dao, Phu Nhuan "}},{"type":"Feature","geometry":{"type":"Point","coordinates":[106.65255160255,10.800518225141]},"properties":{"marker-symbol":"bar","name":"LA Cafe","address":" "}},{"type":"Feature","geometry":{"type":"Point","coordinates":[106.68452277742,10.80003043929]},"properties":{"marker-symbol":"bar","name":"Bv Hoan My Sai Gon","address":"Phan Xich Long, Q. Phu Nhuan "}},{"type":"Feature","geometry":{"type":"Point","coordinates":[106.71094152261,10.800862804726]},"properties":{"marker-symbol":"bar","name":"Head honda phat tien 6","address":" "}},{"type":"Feature","geometry":{"type":"Point","coordinates":[106.71117762421,10.799502681655]},"properties":{"marker-symbol":"bar","name":"KFC XVNT","address":"X\u00f4 Vi\u1ebft Ngh\u1ec7 T\u0129nh "}},{"type":"Feature","geometry":{"type":"Point","coordinates":[106.68720245361,10.796126924879]},"properties":{"marker-symbol":"bar","name":"Gym R\u1ea1ch Mi\u1ec5u","address":"1 Hoa Ph\u01b0\u1ee3ng, Ph\u00fa Nhu\u1eadn "}},{"type":"Feature","geometry":{"type":"Point","coordinates":[106.686344,10.79830154]},"properties":{"marker-symbol":"bar","name":"Square Headquarters","address":"54-56 Hoa Dao, Phu Nhuan "}},{"type":"Feature","geometry":{"type":"Point","coordinates":[106.68997555819,10.773068535046]},"properties":{"marker-symbol":"bar","name":"ca vien chien Suong Nguyet Anh","address":"90 suong nguyet anh "}},{"type":"Feature","geometry":{"type":"Point","coordinates":[106.686344,10.79830154]},"properties":{"marker-symbol":"bar","name":"Square Headquarters","address":"54-56 Hoa Dao, Phu Nhuan "}},{"type":"Feature","geometry":{"type":"Point","coordinates":[106.686344,10.79830154]},"properties":{"marker-symbol":"bar","name":"Square Headquarters","address":"54-56 Hoa Dao, Phu Nhuan "}},{"type":"Feature","geometry":{"type":"Point","coordinates":[106.66574137624,10.813234302361]},"properties":{"marker-symbol":"bar","name":"Megastar","address":"10th Flr. CT Plaza, 60A Tr\u01b0\u1eddng S\u01a1n St., Ward 2, T\u00e2n B\u00ecnh Dist. Hong Ha"}},{"type":"Feature","geometry":{"type":"Point","coordinates":[106.71100486691,10.814449130127]},"properties":{"marker-symbol":"bar","name":"Mi\u1ec1n \u0110\u00f4ng Bus Station","address":"292 Dinh Bo Linh St., Ward 26, Binh Thanh Dist. "}},{"type":"Feature","geometry":{"type":"Point","coordinates":[106.7146212812,10.805473159327]},"properties":{"marker-symbol":"bar","name":"Coffee Scent","address":"340\/31 D3 Street, Ward 25, Binh Thanh District "}},{"type":"Feature","geometry":{"type":"Point","coordinates":[106.686344,10.79830154]},"properties":{"marker-symbol":"bar","name":"Square Headquarters","address":"54-56 Hoa Dao, Phu Nhuan "}},{"type":"Feature","geometry":{"type":"Point","coordinates":[106.686344,10.79830154]},"properties":{"marker-symbol":"bar","name":"Square Headquarters","address":"54-56 Hoa Dao, Phu Nhuan "}},{"type":"Feature","geometry":{"type":"Point","coordinates":[106.68720245361,10.796126924879]},"properties":{"marker-symbol":"bar","name":"Gym R\u1ea1ch Mi\u1ec5u","address":"1 Hoa Ph\u01b0\u1ee3ng, Ph\u00fa Nhu\u1eadn "}},{"type":"Feature","geometry":{"type":"Point","coordinates":[106.686344,10.79830154]},"properties":{"marker-symbol":"bar","name":"Square Headquarters","address":"54-56 Hoa Dao, Phu Nhuan "}},{"type":"Feature","geometry":{"type":"Point","coordinates":[106.71450034919,10.791603932976]},"properties":{"marker-symbol":"bar","name":"B\u00fan b\u00f2 158","address":" "}},{"type":"Feature","geometry":{"type":"Point","coordinates":[106.68780479396,10.796272739101]},"properties":{"marker-symbol":"bar","name":"Trung t\u00e2m TDTT R\u1ea1ch Mi\u1ec5u","address":"Hoa Ph\u01b0\u1ee3ng "}},{"type":"Feature","geometry":{"type":"Point","coordinates":[106.686344,10.79830154]},"properties":{"marker-symbol":"bar","name":"Square Headquarters","address":"54-56 Hoa Dao, Phu Nhuan "}},{"type":"Feature","geometry":{"type":"Point","coordinates":[106.686344,10.79830154]},"properties":{"marker-symbol":"bar","name":"Square Headquarters","address":"54-56 Hoa Dao, Phu Nhuan "}},{"type":"Feature","geometry":{"type":"Point","coordinates":[106.686344,10.79830154]},"properties":{"marker-symbol":"bar","name":"Square Headquarters","address":"54-56 Hoa Dao, Phu Nhuan "}},{"type":"Feature","geometry":{"type":"Point","coordinates":[106.7146212812,10.805473159327]},"properties":{"marker-symbol":"bar","name":"Coffee Scent","address":"340\/31 D3 Street, Ward 25, Binh Thanh District "}},{"type":"Feature","geometry":{"type":"Point","coordinates":[106.67446457,10.8278966]},"properties":{"marker-symbol":"bar","name":"Cafe May Bay","address":"quang trung "}},{"type":"Feature","geometry":{"type":"Point","coordinates":[106.686344,10.79830154]},"properties":{"marker-symbol":"bar","name":"Square Headquarters","address":"54-56 Hoa Dao, Phu Nhuan "}},{"type":"Feature","geometry":{"type":"Point","coordinates":[106.69369527306,10.784585607747]},"properties":{"marker-symbol":"bar","name":"Art Hair","address":"37B Pham Ngoc Thach "}},{"type":"Feature","geometry":{"type":"Point","coordinates":[106.686344,10.79830154]},"properties":{"marker-symbol":"bar","name":"Square Headquarters","address":"54-56 Hoa Dao, Phu Nhuan "}},{"type":"Feature","geometry":{"type":"Point","coordinates":[106.686344,10.79830154]},"properties":{"marker-symbol":"bar","name":"Square Headquarters","address":"54-56 Hoa Dao, Phu Nhuan "}},{"type":"Feature","geometry":{"type":"Point","coordinates":[106.686344,10.79830154]},"properties":{"marker-symbol":"bar","name":"Square Headquarters","address":"54-56 Hoa Dao, Phu Nhuan "}},{"type":"Feature","geometry":{"type":"Point","coordinates":[106.686344,10.79830154]},"properties":{"marker-symbol":"bar","name":"Square Headquarters","address":"54-56 Hoa Dao, Phu Nhuan "}},{"type":"Feature","geometry":{"type":"Point","coordinates":[106.70400831027,10.775491935463]},"properties":{"marker-symbol":"bar","name":"Sheraton Saigon Hotel & Towers","address":"88 Dong Khoi Street, District 1 \u0110\u00f4ng Du St."}},{"type":"Feature","geometry":{"type":"Point","coordinates":[106.7106,10.7931]},"properties":{"marker-symbol":"bar","name":"Greenfield","address":" "}},{"type":"Feature","geometry":{"type":"Point","coordinates":[106.69939041138,10.777493510816]},"properties":{"marker-symbol":"bar","name":"Ngon Restaurant","address":"160 Pasteur St., Ben Nghe Ward, Dist. 1 "}},{"type":"Feature","geometry":{"type":"Point","coordinates":[106.68790267941,10.790742224548]},"properties":{"marker-symbol":"bar","name":"Skynet Technology Incubator","address":" "}},{"type":"Feature","geometry":{"type":"Point","coordinates":[106.68790267941,10.790742224548]},"properties":{"marker-symbol":"bar","name":"Skynet Technology Incubator","address":" "}},{"type":"Feature","geometry":{"type":"Point","coordinates":[106.68790267941,10.790742224548]},"properties":{"marker-symbol":"bar","name":"Skynet Technology Incubator","address":" "}},{"type":"Feature","geometry":{"type":"Point","coordinates":[106.68790267941,10.790742224548]},"properties":{"marker-symbol":"bar","name":"Skynet Technology Incubator","address":" "}},{"type":"Feature","geometry":{"type":"Point","coordinates":[109.21528100967,12.205706394759]},"properties":{"marker-symbol":"bar","name":"Rainbow 5 Star Diveboat","address":"The Harbour "}},{"type":"Feature","geometry":{"type":"Point","coordinates":[109.19242322445,12.25410676888]},"properties":{"marker-symbol":"bar","name":"Ch\u1ee3 \u0110\u1ea7m","address":"Nguy\u1ec5n Th\u00e1i H\u1ecdc Nguy\u1ec5n Du"}},{"type":"Feature","geometry":{"type":"Point","coordinates":[106.71100486691,10.814449130127]},"properties":{"marker-symbol":"bar","name":"Mi\u1ec1n \u0110\u00f4ng Bus Station","address":"292 Dinh Bo Linh St., Ward 26, Binh Thanh Dist. "}},{"type":"Feature","geometry":{"type":"Point","coordinates":[106.68865121671,10.798304498557]},"properties":{"marker-symbol":"bar","name":"Tra Sua Tea Cup","address":"174 Phan Xich Long F2 Q PN Hoa Su"}},{"type":"Feature","geometry":{"type":"Point","coordinates":[106.7057732643,10.79428495992]},"properties":{"marker-symbol":"bar","name":"G\u00e0's Room","address":" "}},{"type":"Feature","geometry":{"type":"Point","coordinates":[106.68481067164,10.787275399074]},"properties":{"marker-symbol":"bar","name":"Qu\u00e1n C\u01a1m T\u00e2n K\u00fd","address":" "}},{"type":"Feature","geometry":{"type":"Point","coordinates":[106.68790267941,10.790742224548]},"properties":{"marker-symbol":"bar","name":"Skynet Technology Incubator","address":" "}},{"type":"Feature","geometry":{"type":"Point","coordinates":[106.686344,10.79830154]},"properties":{"marker-symbol":"bar","name":"Square Headquarters","address":"54-56 Hoa Dao, Phu Nhuan "}},{"type":"Feature","geometry":{"type":"Point","coordinates":[106.7057732643,10.79428495992]},"properties":{"marker-symbol":"bar","name":"G\u00e0's Room","address":" "}},{"type":"Feature","geometry":{"type":"Point","coordinates":[106.68865121671,10.798304498557]},"properties":{"marker-symbol":"bar","name":"Tra Sua Tea Cup","address":"174 Phan Xich Long F2 Q PN Hoa Su"}},{"type":"Feature","geometry":{"type":"Point","coordinates":[106.68790267941,10.790742224548]},"properties":{"marker-symbol":"bar","name":"Skynet Technology Incubator","address":" "}},{"type":"Feature","geometry":{"type":"Point","coordinates":[106.6789,10.7889]},"properties":{"marker-symbol":"bar","name":"Coffee 139","address":" "}},{"type":"Feature","geometry":{"type":"Point","coordinates":[106.66558016948,10.813194755132]},"properties":{"marker-symbol":"bar","name":"Moonlight Coffee","address":"Roof CT Plaza 60A Truong Son Tan Binh Hong Ha"}},{"type":"Feature","geometry":{"type":"Point","coordinates":[106.7057732643,10.79428495992]},"properties":{"marker-symbol":"bar","name":"G\u00e0's Room","address":" "}},{"type":"Feature","geometry":{"type":"Point","coordinates":[106.65855914354,10.796369320281]},"properties":{"marker-symbol":"bar","name":"Soho Coffee","address":"52 Ut Tich, P4, Tan Binh Hoang Van Thu & Hoang Viet"}},{"type":"Feature","geometry":{"type":"Point","coordinates":[106.68784509973,10.798532444674]},"properties":{"marker-symbol":"bar","name":"Vietcombank Mieu Noi","address":" "}},{"type":"Feature","geometry":{"type":"Point","coordinates":[106.686344,10.79830154]},"properties":{"marker-symbol":"bar","name":"Square Headquarters","address":"54-56 Hoa Dao, Phu Nhuan "}},{"type":"Feature","geometry":{"type":"Point","coordinates":[106.71979838506,10.730398998577]},"properties":{"marker-symbol":"bar","name":"Phu My Hung Ads Booth @Crescent Mall","address":"Nguyen Van Linh Nguyen Luong Bang"}},{"type":"Feature","geometry":{"type":"Point","coordinates":[106.71249634269,10.748802261936]},"properties":{"marker-symbol":"bar","name":"Banh Canh Cua","address":"\u0110\u01af\u1edcNG S\u1ed0 23, T\u00e2n Quy, Qu\u1eadn 7, H\u1ed3 Ch\u00ed Minh "}},{"type":"Feature","geometry":{"type":"Point","coordinates":[106.68784509973,10.798532444674]},"properties":{"marker-symbol":"bar","name":"Vietcombank Mieu Noi","address":" "}},{"type":"Feature","geometry":{"type":"Point","coordinates":[106.686344,10.79830154]},"properties":{"marker-symbol":"bar","name":"Square Headquarters","address":"54-56 Hoa Dao, Phu Nhuan "}},{"type":"Feature","geometry":{"type":"Point","coordinates":[106.68790267941,10.790742224548]},"properties":{"marker-symbol":"bar","name":"Skynet Technology Incubator","address":" "}},{"type":"Feature","geometry":{"type":"Point","coordinates":[106.7057732643,10.79428495992]},"properties":{"marker-symbol":"bar","name":"G\u00e0's Room","address":" "}},{"type":"Feature","geometry":{"type":"Point","coordinates":[106.7057732643,10.79428495992]},"properties":{"marker-symbol":"bar","name":"G\u00e0's Room","address":" "}},{"type":"Feature","geometry":{"type":"Point","coordinates":[106.71100486691,10.814449130127]},"properties":{"marker-symbol":"bar","name":"Mi\u1ec1n \u0110\u00f4ng Bus Station","address":"292 Dinh Bo Linh St., Ward 26, Binh Thanh Dist. "}},{"type":"Feature","geometry":{"type":"Point","coordinates":[106.66722102957,10.775666407899]},"properties":{"marker-symbol":"bar","name":"\u00c2m 18 \u0110\u1ed9","address":"S\u01b0 V\u1ea1n H\u1ea1nh Nd, Q.10 "}},{"type":"Feature","geometry":{"type":"Point","coordinates":[106.6916338753,10.791923679795]},"properties":{"marker-symbol":"bar","name":"Cafe F1","address":"130 Tr\u1ea7n Quang Kh\u1ea3i Nguy\u1ec5n H\u1eefu C\u1ea7u"}},{"type":"Feature","geometry":{"type":"Point","coordinates":[106.74541502675,10.767655542861]},"properties":{"marker-symbol":"bar","name":"FPT Telecom, Tan Thuan EPZ","address":" "}},{"type":"Feature","geometry":{"type":"Point","coordinates":[106.68991797796,10.809850910659]},"properties":{"marker-symbol":"bar","name":"Cafe Sen","address":"6\/1 Nguy\u1ec5n Huy T\u01b0\u1edfng, B\u00ecnh Th\u1ea1nh "}},{"type":"Feature","geometry":{"type":"Point","coordinates":[106.6904425621,10.785946141489]},"properties":{"marker-symbol":"bar","name":"Karaoke Nnice Vo Thi Sau","address":"121 Vo\u0303 Thi\u0323 Sa\u0301u "}},{"type":"Feature","geometry":{"type":"Point","coordinates":[106.7057732643,10.79428495992]},"properties":{"marker-symbol":"bar","name":"G\u00e0's Room","address":" "}},{"type":"Feature","geometry":{"type":"Point","coordinates":[106.702223,10.770195]},"properties":{"marker-symbol":"bar","name":"\u0110\u00e3 T\u1eebng Th\u1ea5y Cafe","address":"89\/5 H\u00e0m Nghi "}},{"type":"Feature","geometry":{"type":"Point","coordinates":[106.70549398026,10.767695983878]},"properties":{"marker-symbol":"bar","name":"Dai Hoc Luat","address":"2 Nguyen Tat Thanh "}},{"type":"Feature","geometry":{"type":"Point","coordinates":[106.70198136584,10.803959112764]},"properties":{"marker-symbol":"bar","name":"Cafe Trung Nguyen Bach Dang","address":"270A Bach Dang "}},{"type":"Feature","geometry":{"type":"Point","coordinates":[106.70549398026,10.767695983878]},"properties":{"marker-symbol":"bar","name":"Dai Hoc Luat","address":"2 Nguyen Tat Thanh "}},{"type":"Feature","geometry":{"type":"Point","coordinates":[106.649563,10.800526]},"properties":{"marker-symbol":"bar","name":"Ngau Nhien","address":" "}},{"type":"Feature","geometry":{"type":"Point","coordinates":[106.7057732643,10.79428495992]},"properties":{"marker-symbol":"bar","name":"G\u00e0's Room","address":" "}},{"type":"Feature","geometry":{"type":"Point","coordinates":[106.66722102957,10.775666407899]},"properties":{"marker-symbol":"bar","name":"\u00c2m 18 \u0110\u1ed9","address":"S\u01b0 V\u1ea1n H\u1ea1nh Nd, Q.10 "}},{"type":"Feature","geometry":{"type":"Point","coordinates":[106.68509960174,10.756591558456]},"properties":{"marker-symbol":"bar","name":"KFC Nguyen Van Cu","address":"162 Nguy\u1ec5n V\u0103n C\u1eeb "}},{"type":"Feature","geometry":{"type":"Point","coordinates":[106.7057732643,10.79428495992]},"properties":{"marker-symbol":"bar","name":"G\u00e0's Room","address":" "}},{"type":"Feature","geometry":{"type":"Point","coordinates":[106.70549398026,10.767695983878]},"properties":{"marker-symbol":"bar","name":"Dai Hoc Luat","address":"2 Nguyen Tat Thanh "}},{"type":"Feature","geometry":{"type":"Point","coordinates":[106.68991797796,10.809850910659]},"properties":{"marker-symbol":"bar","name":"Cafe Sen","address":"6\/1 Nguy\u1ec5n Huy T\u01b0\u1edfng, B\u00ecnh Th\u1ea1nh "}},{"type":"Feature","geometry":{"type":"Point","coordinates":[106.7057732643,10.79428495992]},"properties":{"marker-symbol":"bar","name":"G\u00e0's Room","address":" "}},{"type":"Feature","geometry":{"type":"Point","coordinates":[106.71619340335,10.807154159341]},"properties":{"marker-symbol":"bar","name":"D2 cafe","address":"198-200 D2 binh thanh district ho chi minh city "}},{"type":"Feature","geometry":{"type":"Point","coordinates":[106.71966017381,10.732163]},"properties":{"marker-symbol":"bar","name":"Thean Son Plaza","address":" "}},{"type":"Feature","geometry":{"type":"Point","coordinates":[106.68926239014,10.77201287529]},"properties":{"marker-symbol":"bar","name":"C\u00e1 Vi\u00ean Chi\u00ean","address":"S\u01b0\u01a1ng Nguy\u1ec7t \u00c1nh St., District 1 T\u00f4n Th\u1ea5t T\u00f9ng & CMT8"}},{"type":"Feature","geometry":{"type":"Point","coordinates":[106.70549398026,10.767695983878]},"properties":{"marker-symbol":"bar","name":"Dai Hoc Luat","address":"2 Nguyen Tat Thanh "}},{"type":"Feature","geometry":{"type":"Point","coordinates":[106.7057732643,10.79428495992]},"properties":{"marker-symbol":"bar","name":"G\u00e0's Room","address":" "}},{"type":"Feature","geometry":{"type":"Point","coordinates":[106.70162200928,10.74051836863]},"properties":{"marker-symbol":"bar","name":"Lotte Mart","address":"Nguy\u1ec5n H\u1eefu Th\u1ecd St., Dist. 7 "}},{"type":"Feature","geometry":{"type":"Point","coordinates":[106.7057732643,10.79428495992]},"properties":{"marker-symbol":"bar","name":"G\u00e0's Room","address":" "}},{"type":"Feature","geometry":{"type":"Point","coordinates":[106.70549398026,10.767695983878]},"properties":{"marker-symbol":"bar","name":"Dai Hoc Luat","address":"2 Nguyen Tat Thanh "}},{"type":"Feature","geometry":{"type":"Point","coordinates":[106.65855914354,10.796369320281]},"properties":{"marker-symbol":"bar","name":"Soho Coffee","address":"52 Ut Tich, P4, Tan Binh Hoang Van Thu & Hoang Viet"}},{"type":"Feature","geometry":{"type":"Point","coordinates":[106.70549398026,10.767695983878]},"properties":{"marker-symbol":"bar","name":"Dai Hoc Luat","address":"2 Nguyen Tat Thanh "}},{"type":"Feature","geometry":{"type":"Point","coordinates":[106.70549398026,10.767695983878]},"properties":{"marker-symbol":"bar","name":"Dai Hoc Luat","address":"2 Nguyen Tat Thanh "}},{"type":"Feature","geometry":{"type":"Point","coordinates":[106.64699554443,10.79702091217]},"properties":{"marker-symbol":"bar","name":"Banh mi Ngoc Anh","address":" "}},{"type":"Feature","geometry":{"type":"Point","coordinates":[106.70549398026,10.767695983878]},"properties":{"marker-symbol":"bar","name":"Dai Hoc Luat","address":"2 Nguyen Tat Thanh "}},{"type":"Feature","geometry":{"type":"Point","coordinates":[106.69429957867,10.767032788246]},"properties":{"marker-symbol":"bar","name":"Zoom Cafe","address":"169a \u0110\u1ec1 Th\u00e1m Tr\u1ea7n H\u01b0ng \u0110\u1ea1o"}},{"type":"Feature","geometry":{"type":"Point","coordinates":[106.68984312368,10.769405112533]},"properties":{"marker-symbol":"bar","name":"Tibetan Coffee","address":"28\/11A Ton That Tung St., Dist. 1 "}},{"type":"Feature","geometry":{"type":"Point","coordinates":[106.69369527306,10.784585607747]},"properties":{"marker-symbol":"bar","name":"Art Hair","address":"37B Pham Ngoc Thach "}},{"type":"Feature","geometry":{"type":"Point","coordinates":[106.69887764336,10.779398581565]},"properties":{"marker-symbol":"bar","name":"Cafe Ha\u0300n Thuy\u00ean","address":"H\u00e0n Thuy\u00ean "}},{"type":"Feature","geometry":{"type":"Point","coordinates":[106.69855356216,10.779559262929]},"properties":{"marker-symbol":"bar","name":"Cafe B\u1ec7t","address":"April 30th Park, L\u00ea Du\u1ea9n Blvd., Dist. 1 H\u00e0n Thuy\u00ean & Alexandre de Rrodes"}},{"type":"Feature","geometry":{"type":"Point","coordinates":[106.69203,10.790568]},"properties":{"marker-symbol":"bar","name":"B\u00fan B\u00f2 Hu\u1ebf M\u1ea1 \u01a0i","address":" "}},{"type":"Feature","geometry":{"type":"Point","coordinates":[108.338097,12.950971]},"properties":{"marker-symbol":"bar","name":"Cafe H\u1ed3ng Ph\u00fac","address":"Th\u1ecb Tr\u1ea5n Krong N\u0103ng "}},{"type":"Feature","geometry":{"type":"Point","coordinates":[108.338097,12.950971]},"properties":{"marker-symbol":"bar","name":"Cafe H\u1ed3ng Ph\u00fac","address":"Th\u1ecb Tr\u1ea5n Krong N\u0103ng "}},{"type":"Feature","geometry":{"type":"Point","coordinates":[108.294646,14.055347]},"properties":{"marker-symbol":"bar","name":"Qua\u0301n \u0103n H\u01b0ng S\u01a1n","address":" "}},{"type":"Feature","geometry":{"type":"Point","coordinates":[108.8183485,15.3489299]},"properties":{"marker-symbol":"bar","name":"Cafe Gio\u0301 H\u00f4\u0300ng","address":" "}},{"type":"Feature","geometry":{"type":"Point","coordinates":[108.766127,14.906906]},"properties":{"marker-symbol":"bar","name":"Cafe T&T","address":" "}},{"type":"Feature","geometry":{"type":"Point","coordinates":[108.766127,14.906906]},"properties":{"marker-symbol":"bar","name":"Cafe T&T","address":" "}},{"type":"Feature","geometry":{"type":"Point","coordinates":[108.766401,14.907103]},"properties":{"marker-symbol":"bar","name":"Nha\u0300 Duy","address":" "}},{"type":"Feature","geometry":{"type":"Point","coordinates":[108.76836,15.373677]},"properties":{"marker-symbol":"bar","name":"M\u00f4\u0323 ba\u0300 n\u00f4\u0323i","address":" "}},{"type":"Feature","geometry":{"type":"Point","coordinates":[108.816476,15.341573]},"properties":{"marker-symbol":"bar","name":"L\u00ea Ta\u0301nh Chi Linh ( \u00d4ng c\u00f4\u0301, \u00f4ng cao, \u00f4ng t\u00f4\u0309...)","address":" "}},{"type":"Feature","geometry":{"type":"Point","coordinates":[108.814595,15.355282]},"properties":{"marker-symbol":"bar","name":"Con \u00f4ng N\u0103m, con nu\u00f4i cu\u0309a \u00f4ng co","address":" "}},{"type":"Feature","geometry":{"type":"Point","coordinates":[108.817112,15.35518]},"properties":{"marker-symbol":"bar","name":"M\u00f4\u0323 chu\u0301 Quang, c\u00f4 Lan, \u00f4ng n\u00f4\u0323i u\u0301t, \u00f4ng c\u00f4\u0301 n\u00f4\u0323i, ba\u0300 c\u00f4\u0301 n\u00f4\u0323i","address":" "}},{"type":"Feature","geometry":{"type":"Point","coordinates":[108.816546,15.355243]},"properties":{"marker-symbol":"bar","name":"M\u00f4\u0323 c\u00f4 Hai, \u00f4ng c\u00f4\u0301 Sa\u0301u","address":" "}},{"type":"Feature","geometry":{"type":"Point","coordinates":[108.815324,15.351916]},"properties":{"marker-symbol":"bar","name":"M\u00f4\u0323 \u00f4ng N\u0103m, ba\u0300 N\u0103m","address":" "}},{"type":"Feature","geometry":{"type":"Point","coordinates":[108.81642,15.352662]},"properties":{"marker-symbol":"bar","name":"M\u00f4\u0323 \u00f4ng n\u00f4\u0323i","address":" "}},{"type":"Feature","geometry":{"type":"Point","coordinates":[108.81883686917,15.350834865606]},"properties":{"marker-symbol":"bar","name":"Nha\u0300 cu\u0309a Sang Ga\u0300","address":" "}},{"type":"Feature","geometry":{"type":"Point","coordinates":[108.817672,15.350089]},"properties":{"marker-symbol":"bar","name":"Chu\u0300a Vi\u00ean Ph\u01b0\u01a1\u0301c","address":" "}},{"type":"Feature","geometry":{"type":"Point","coordinates":[108.81883686917,15.350834865606]},"properties":{"marker-symbol":"bar","name":"Nha\u0300 cu\u0309a Sang Ga\u0300","address":" "}},{"type":"Feature","geometry":{"type":"Point","coordinates":[108.818543,15.350899]},"properties":{"marker-symbol":"bar","name":"Nha\u0300 cu\u0309a Sang Ga\u0300","address":" "}},{"type":"Feature","geometry":{"type":"Point","coordinates":[108.834386,15.335116]},"properties":{"marker-symbol":"bar","name":"Cafe Ne\u0301t Vi\u00ea\u0323t","address":" "}},{"type":"Feature","geometry":{"type":"Point","coordinates":[108.80834175995,15.359470967717]},"properties":{"marker-symbol":"bar","name":"Dung Quat Refinery","address":" "}},{"type":"Feature","geometry":{"type":"Point","coordinates":[108.834386,15.335116]},"properties":{"marker-symbol":"bar","name":"Cafe Ne\u0301t Vi\u00ea\u0323t","address":" "}},{"type":"Feature","geometry":{"type":"Point","coordinates":[108.815324,15.351916]},"properties":{"marker-symbol":"bar","name":"M\u00f4\u0323 \u00f4ng N\u0103m, ba\u0300 N\u0103m","address":" "}},{"type":"Feature","geometry":{"type":"Point","coordinates":[108.81883686917,15.350834865606]},"properties":{"marker-symbol":"bar","name":"Nha\u0300 cu\u0309a Sang Ga\u0300","address":" "}},{"type":"Feature","geometry":{"type":"Point","coordinates":[108.81642,15.352662]},"properties":{"marker-symbol":"bar","name":"M\u00f4\u0323 \u00f4ng n\u00f4\u0323i","address":" "}},{"type":"Feature","geometry":{"type":"Point","coordinates":[108.815324,15.351916]},"properties":{"marker-symbol":"bar","name":"M\u00f4\u0323 \u00f4ng N\u0103m, ba\u0300 N\u0103m","address":" "}},{"type":"Feature","geometry":{"type":"Point","coordinates":[108.814595,15.355282]},"properties":{"marker-symbol":"bar","name":"Con \u00f4ng N\u0103m, con nu\u00f4i cu\u0309a \u00f4ng co","address":" "}},{"type":"Feature","geometry":{"type":"Point","coordinates":[108.817112,15.35518]},"properties":{"marker-symbol":"bar","name":"M\u00f4\u0323 chu\u0301 Quang, c\u00f4 Lan, \u00f4ng n\u00f4\u0323i u\u0301t, \u00f4ng c\u00f4\u0301 n\u00f4\u0323i, ba\u0300 c\u00f4\u0301 n\u00f4\u0323i","address":" "}},{"type":"Feature","geometry":{"type":"Point","coordinates":[108.816546,15.355243]},"properties":{"marker-symbol":"bar","name":"M\u00f4\u0323 c\u00f4 Hai, \u00f4ng c\u00f4\u0301 Sa\u0301u","address":" "}},{"type":"Feature","geometry":{"type":"Point","coordinates":[108.79303762367,15.354881363756]},"properties":{"marker-symbol":"bar","name":"H\u00f4\u0300 nho\u0309 Bi\u0300nh Tri\u0323","address":" "}},{"type":"Feature","geometry":{"type":"Point","coordinates":[108.818543,15.350899]},"properties":{"marker-symbol":"bar","name":"Nha\u0300 cu\u0309a Sang Ga\u0300","address":" "}},{"type":"Feature","geometry":{"type":"Point","coordinates":[108.81883686917,15.350834865606]},"properties":{"marker-symbol":"bar","name":"Nha\u0300 cu\u0309a Sang Ga\u0300","address":" "}},{"type":"Feature","geometry":{"type":"Point","coordinates":[109.04928189667,13.953004096621]},"properties":{"marker-symbol":"bar","name":"Phu Cat Airport","address":" "}},{"type":"Feature","geometry":{"type":"Point","coordinates":[106.71565784399,10.797874328386]},"properties":{"marker-symbol":"bar","name":"Khu Du Lich Van Thanh","address":"\u0110i\u1ec7n Bi\u00ean Ph\u1ee7, Ward 25, B\u00ecnh Th\u1ea1nh Dist. "}},{"type":"Feature","geometry":{"type":"Point","coordinates":[106.69599277548,10.792934051509]},"properties":{"marker-symbol":"bar","name":"Topukki","address":" "}},{"type":"Feature","geometry":{"type":"Point","coordinates":[106.6846609666,10.787226187974]},"properties":{"marker-symbol":"bar","name":"B\u00fan Ch\u1ea3 \u00c1nh H\u1ed3ng","address":"140B Ly Chinh Thang St., Ward 7, Dist. 3 "}},{"type":"Feature","geometry":{"type":"Point","coordinates":[106.68529272079,10.787843208007]},"properties":{"marker-symbol":"bar","name":"Ringier Vietnam","address":"111B, Ly\u0301 Chi\u0301nh Th\u0103\u0301ng "}},{"type":"Feature","geometry":{"type":"Point","coordinates":[106.68481067164,10.787275399074]},"properties":{"marker-symbol":"bar","name":"Qu\u00e1n C\u01a1m T\u00e2n K\u00fd","address":" "}},{"type":"Feature","geometry":{"type":"Point","coordinates":[106.71026777064,10.793880532627]},"properties":{"marker-symbol":"bar","name":"Quan Ga Ta 51","address":" "}},{"type":"Feature","geometry":{"type":"Point","coordinates":[106.68481067164,10.787275399074]},"properties":{"marker-symbol":"bar","name":"Qu\u00e1n C\u01a1m T\u00e2n K\u00fd","address":" "}},{"type":"Feature","geometry":{"type":"Point","coordinates":[106.68529272079,10.787843208007]},"properties":{"marker-symbol":"bar","name":"Ringier Vietnam","address":"111B, Ly\u0301 Chi\u0301nh Th\u0103\u0301ng "}},{"type":"Feature","geometry":{"type":"Point","coordinates":[106.67764221805,10.733260166897]},"properties":{"marker-symbol":"bar","name":"C\u01a1m ga\u0300 Qu\u1ea3ng Nam","address":" "}},{"type":"Feature","geometry":{"type":"Point","coordinates":[106.68529272079,10.787843208007]},"properties":{"marker-symbol":"bar","name":"Ringier Vietnam","address":"111B, Ly\u0301 Chi\u0301nh Th\u0103\u0301ng "}},{"type":"Feature","geometry":{"type":"Point","coordinates":[106.68481067164,10.787275399074]},"properties":{"marker-symbol":"bar","name":"Qu\u00e1n C\u01a1m T\u00e2n K\u00fd","address":" "}},{"type":"Feature","geometry":{"type":"Point","coordinates":[106.68529272079,10.787843208007]},"properties":{"marker-symbol":"bar","name":"Ringier Vietnam","address":"111B, Ly\u0301 Chi\u0301nh Th\u0103\u0301ng "}},{"type":"Feature","geometry":{"type":"Point","coordinates":[106.63007153025,10.802703900112]},"properties":{"marker-symbol":"bar","name":"Nha khoa Newsmile","address":" "}},{"type":"Feature","geometry":{"type":"Point","coordinates":[106.665501,10.778263]},"properties":{"marker-symbol":"bar","name":"Big C Mien Dong","address":"138A To Hien Thanh St., Ward 15, Dist. 10 "}},{"type":"Feature","geometry":{"type":"Point","coordinates":[106.70549398026,10.767695983878]},"properties":{"marker-symbol":"bar","name":"Dai Hoc Luat","address":"2 Nguyen Tat Thanh "}},{"type":"Feature","geometry":{"type":"Point","coordinates":[106.64296634494,10.807022103939]},"properties":{"marker-symbol":"bar","name":"Nguyen Khuyen High School","address":"Mai Lao Bang "}},{"type":"Feature","geometry":{"type":"Point","coordinates":[106.6415616,10.80236605]},"properties":{"marker-symbol":"bar","name":"Honda Visacoop","address":" "}},{"type":"Feature","geometry":{"type":"Point","coordinates":[106.64300088565,10.804998668512]},"properties":{"marker-symbol":"bar","name":"Rua xe Thao","address":" "}},{"type":"Feature","geometry":{"type":"Point","coordinates":[106.70549398026,10.767695983878]},"properties":{"marker-symbol":"bar","name":"Dai Hoc Luat","address":"2 Nguyen Tat Thanh "}},{"type":"Feature","geometry":{"type":"Point","coordinates":[106.70400831027,10.775491935463]},"properties":{"marker-symbol":"bar","name":"Sheraton Saigon Hotel & Towers","address":"88 Dong Khoi Street, District 1 \u0110\u00f4ng Du St."}},{"type":"Feature","geometry":{"type":"Point","coordinates":[106.68529272079,10.787843208007]},"properties":{"marker-symbol":"bar","name":"Ringier Vietnam","address":"111B, Ly\u0301 Chi\u0301nh Th\u0103\u0301ng "}},{"type":"Feature","geometry":{"type":"Point","coordinates":[106.639428,10.804307]},"properties":{"marker-symbol":"bar","name":"Cafe Huyen Thoai","address":" "}},{"type":"Feature","geometry":{"type":"Point","coordinates":[106.68599679982,10.787241944529]},"properties":{"marker-symbol":"bar","name":"Cafe M\u1ed9t Thu\u1edf","address":"209 Nam K\u1ef3 Kh\u1edfi Ngh\u0129a St., Dist. 1 "}},{"type":"Feature","geometry":{"type":"Point","coordinates":[106.68237447739,10.764339817997]},"properties":{"marker-symbol":"bar","name":"NYDC","address":"Nowzone, 235 Nguyen Van Cu, D1 "}},{"type":"Feature","geometry":{"type":"Point","coordinates":[106.66338086055,10.806126527051]},"properties":{"marker-symbol":"bar","name":"Trau Vang","address":"16 Nguyen Van Mai P4 Q.TB "}},{"type":"Feature","geometry":{"type":"Point","coordinates":[106.68529272079,10.787843208007]},"properties":{"marker-symbol":"bar","name":"Ringier Vietnam","address":"111B, Ly\u0301 Chi\u0301nh Th\u0103\u0301ng "}},{"type":"Feature","geometry":{"type":"Point","coordinates":[106.68529272079,10.787843208007]},"properties":{"marker-symbol":"bar","name":"Ringier Vietnam","address":"111B, Ly\u0301 Chi\u0301nh Th\u0103\u0301ng "}},{"type":"Feature","geometry":{"type":"Point","coordinates":[106.70549398026,10.767695983878]},"properties":{"marker-symbol":"bar","name":"Dai Hoc Luat","address":"2 Nguyen Tat Thanh "}}]}